weight: 1
name: "Partners In Health"
image: "/img/users/partners-in-health.png"
url: "https://www.pih.org/"
description: "Global health organization delivering care in 12 countries. Uses OpenBoxes to manage pharmaceutical and medical supply chains across Haiti, Rwanda, Malawi, Sierra Leone, Liberia, and more."
locations:
  - name: "Boston, MA (HQ)"
    latitude: 42.3601
    longitude: -71.0589
  - name: "Cange, Haiti"
    latitude: 19.0
    longitude: -71.85
  - name: "Kigali, Rwanda"
    latitude: -1.9403
    longitude: 29.8739
  - name: "Neno, Malawi"
    latitude: -15.4
    longitude: 34.65
  - name: "Kono, Sierra Leone"
    latitude: 8.65
    longitude: -10.85
  - name: "Monrovia, Liberia"
    latitude: 6.3156
    longitude: -10.8074
  - name: "Carabayllo, Peru"
    latitude: -11.9
    longitude: -77.03
  - name: "Chiapas, Mexico"
    latitude: 16.75
    longitude: -93.12
  - name: "Maseru, Lesotho"
    latitude: -29.3167
    longitude: 27.4833
  - name: "Navajo Nation, USA"
    latitude: 36.0672
    longitude: -109.1880
  - name: "Astana, Kazakhstan"
    latitude: 51.1694
    longitude: 71.4491
  - name: "Freetown, Sierra Leone"
    latitude: 8.4657
    longitude: -13.2317
